City_ID,City,Lat,Lng,Max Temp,Humidity,Cloudiness,Wind Speed,Country,Date
0,atuona,-9.8,-139.0333,27.21,76,{'all': 59},6.58,PF,1680133060
1,paciran,-6.8767,112.3761,26.58,83,{'all': 100},3.55,ID,1680133062
2,mahibadhoo,3.7833,72.9667,27.29,76,{'all': 23},2.43,MV,1680133064
3,sao joao da barra,-21.6403,-41.0511,25.05,86,{'all': 64},3.37,BR,1680133067
4,talnakh,69.4865,88.3972,-27.61,100,{'all': 100},2.92,RU,1680133070
5,port elizabeth,-33.918,25.5701,16.16,69,{'all': 0},9.26,ZA,1680132982
6,busselton,-33.65,115.3333,17.06,69,{'all': 95},6.86,AU,1680132826
7,half moon bay,37.4636,-122.4286,11.68,85,{'all': 100},4.63,US,1680133075
8,tiksi,71.6872,128.8694,-26.32,98,{'all': 74},2.12,RU,1680133139
9,werda,-25.2667,23.2833,21.97,39,{'all': 43},4.41,BW,1680133140
10,sao paulo de olivenca,-3.3783,-68.8725,23.07,97,{'all': 62},0.63,BR,1680133142
11,avarua,-21.2078,-159.775,28.03,83,{'all': 75},3.6,CK,1680133146
12,abha,18.2164,42.5053,15.14,82,{'all': 0},3.09,SA,1680133105
13,torbay,47.6666,-52.7314,-0.24,93,{'all': 100},6.69,CA,1680133153
14,hithadhoo,-0.6,73.0833,27.65,76,{'all': 20},3.18,MV,1680133154
15,port alfred,-33.5906,26.891,13.99,75,{'all': 92},1.34,ZA,1680133157
16,barybino,55.2677,37.8933,6.14,93,{'all': 100},3.0,RU,1680133159
17,oxford,51.7522,-1.256,12.25,91,{'all': 100},6.69,GB,1680133056
18,xifeng,42.7372,124.7222,11.66,45,{'all': 87},3.04,CN,1680133161
19,albany,42.6001,-73.9662,10.36,36,{'all': 98},4.13,US,1680133136
20,mahebourg,-20.4081,57.7,27.16,83,{'all': 75},4.63,MU,1680133164
21,punta arenas,-53.15,-70.9167,4.06,56,{'all': 40},3.09,CL,1680133165
22,rikitea,-23.1203,-134.9692,26.7,75,{'all': 65},3.29,PF,1680133167
23,alingsas,57.9303,12.5335,-0.24,96,{'all': 95},3.09,SE,1680133168
24,vaini,-21.2,-175.2,30.09,79,{'all': 40},2.57,TO,1680133169
25,hilo,19.7297,-155.09,28.49,78,{'all': 100},4.47,US,1680133171
26,shaoguan,24.8,113.5833,15.99,92,{'all': 100},0.54,CN,1680133172
27,carnarvon,-24.8667,113.6333,23.97,77,{'all': 100},1.48,AU,1680133174
28,sola,-13.8833,167.55,27.08,76,{'all': 30},1.64,VU,1680133175
29,puri,19.8,85.85,26.29,85,{'all': 7},7.1,IN,1680133013
30,nenjiang,49.1833,125.2167,4.38,44,{'all': 4},3.46,CN,1680133178
31,sitka,57.0531,-135.33,6.94,61,{'all': 0},9.26,US,1680133179
32,tuktoyaktuk,69.4541,-133.0374,-16.0,78,{'all': 0},1.54,CA,1680133180
33,rocha,-34.4833,-54.3333,19.46,90,{'all': 50},5.82,UY,1680133181
34,kapaa,22.0752,-159.319,23.18,88,{'all': 100},5.14,US,1680133182
35,ribeira grande,38.5167,-28.7,17.1,90,{'all': 100},15.2,PT,1680132829
36,yellowknife,62.456,-114.3525,-6.71,68,{'all': 75},4.63,CA,1680133185
37,cape town,-33.9258,18.4232,18.54,79,{'all': 75},3.09,ZA,1680132903
38,hermanus,-34.4187,19.2345,12.11,76,{'all': 27},2.08,ZA,1680133187
39,qaanaaq,77.484,-69.3632,-23.69,63,{'all': 90},3.36,GL,1680133188
40,waipawa,-41.4122,175.5153,9.92,81,{'all': 100},9.45,NZ,1680133190
41,camopi,3.1655,-52.3158,22.43,99,{'all': 56},1.5,GF,1680133191
42,bluff,-46.6,168.3333,11.56,55,{'all': 44},7.07,NZ,1680133192
43,villa maria,-32.4075,-63.2402,17.68,55,{'all': 77},4.07,AR,1680133193
44,mataura,-46.1927,168.8643,11.38,51,{'all': 20},3.31,NZ,1680133195
45,lebu,-37.6167,-73.65,11.64,69,{'all': 24},7.29,CL,1680133196
46,yulara,-25.2406,130.9889,24.05,37,{'all': 54},7.83,AU,1680133198
47,port macquarie,-31.4333,152.9167,26.05,39,{'all': 0},3.91,AU,1680133200
48,maputo,-25.9653,32.5892,22.82,90,{'all': 75},5.66,MZ,1680133063
49,mugur-aksy,50.35,90.5,-2.48,47,{'all': 9},2.58,RU,1680133203
50,aykhal,66.0,111.5,-16.85,96,{'all': 100},7.13,RU,1680133204
51,aksarka,66.5606,67.7975,-21.15,86,{'all': 10},3.14,RU,1680133206
52,saint-augustin,51.226,-58.6502,-0.49,90,{'all': 100},3.19,CA,1680133208
53,arraial do cabo,-22.9661,-42.0278,25.92,83,{'all': 0},5.14,BR,1680133209
54,tromso,69.6496,18.957,-2.99,74,{'all': 40},3.6,NO,1680133210
55,mpanda,-6.3655,31.0409,17.33,98,{'all': 71},0.28,TZ,1680133213
56,conceicao da barra,-18.5933,-39.7322,24.89,71,{'all': 33},3.19,BR,1680133214
57,gwembe,-16.4975,27.6069,15.24,88,{'all': 8},1.72,ZM,1680133216
58,huntington,38.4193,-82.4452,14.5,24,{'all': 0},5.66,US,1680133217
59,fayetteville,35.0527,-78.8784,15.29,52,{'all': 0},2.06,US,1680133109
60,hobart,-42.8794,147.3294,13.48,71,{'all': 75},8.23,AU,1680133206
61,georgetown,5.4112,100.3354,25.96,94,{'all': 20},1.54,MY,1680133221
62,kasongo-lunda,-6.4667,16.8167,20.83,97,{'all': 68},0.65,CD,1680133222
63,neyshabur,36.2133,58.7958,14.38,49,{'all': 4},1.14,IR,1680133224
64,grindavik,63.8424,-22.4338,4.97,87,{'all': 100},7.2,IS,1680133225
65,flin flon,54.7682,-101.865,0.91,40,{'all': 40},4.12,CA,1680133227
66,lac du bonnet,50.2536,-96.0612,-6.32,85,{'all': 86},4.99,CA,1680133228
67,okhotsk,59.3833,143.3,-4.45,93,{'all': 100},2.32,RU,1680133229
68,kamaishi,39.2667,141.8833,9.43,61,{'all': 3},2.1,JP,1680133230
69,aklavik,68.2191,-135.0107,-10.02,83,{'all': 20},5.57,CA,1680133232
70,barcelona,41.3888,2.159,14.83,71,{'all': 20},4.12,ES,1680132945
71,barrow,71.2906,-156.7887,-12.99,78,{'all': 0},5.66,US,1680133235
72,ushuaia,-54.8,-68.3,2.81,75,{'all': 75},9.26,AR,1680133036
73,narsaq,60.9167,-46.05,-1.88,77,{'all': 11},2.71,GL,1680133238
74,gat,31.61,34.7642,14.38,100,{'all': 90},5.98,IL,1680133239
75,toumodi,6.5613,-5.0158,21.81,95,{'all': 100},1.38,CI,1680133241
76,upernavik,72.7868,-56.1549,-28.55,87,{'all': 49},3.14,GL,1680133244
77,yar-sale,66.8333,70.8333,-17.83,80,{'all': 20},6.84,RU,1680133246
78,oudtshoorn,-33.5907,22.2014,12.13,79,{'all': 69},0.59,ZA,1680133247
79,evensk,61.95,159.2333,-11.48,87,{'all': 31},1.39,RU,1680133248
80,hay river,60.8156,-115.7999,-5.02,58,{'all': 40},2.57,CA,1680133250
81,port lincoln,-34.7333,135.8667,17.59,63,{'all': 64},4.52,AU,1680133252
82,chuy,-33.6971,-53.4616,21.65,78,{'all': 28},5.2,UY,1680133253
83,norman wells,65.282,-126.8329,-6.98,58,{'all': 75},2.06,CA,1680133255
84,neyyattinkara,8.4,77.0833,28.92,92,{'all': 97},2.0,IN,1680133256
85,nova odesa,47.3078,31.7851,0.36,73,{'all': 96},4.97,UA,1680133257
86,charters towers,-20.1,146.2667,28.34,56,{'all': 6},4.43,AU,1680133260
87,east london,-33.0153,27.9116,16.54,66,{'all': 96},7.59,ZA,1680132990
88,zhigansk,66.7697,123.3711,-21.49,92,{'all': 66},2.63,RU,1680133262
89,airai,-8.9266,125.4092,18.27,77,{'all': 98},1.35,TL,1680133264
90,geelong,-38.1471,144.3607,16.71,77,{'all': 75},6.69,AU,1680132994
91,atambua,-9.1061,124.8925,24.91,78,{'all': 94},1.13,ID,1680133270
92,kruisfontein,-34.0033,24.7314,12.16,82,{'all': 49},5.26,ZA,1680133272
93,thompson,55.7435,-97.8558,-0.91,40,{'all': 75},6.17,CA,1680133274
94,port hawkesbury,45.6169,-61.3485,0.1,96,{'all': 100},2.24,CA,1680133275
95,santa cruz de tenerife,28.4682,-16.2546,25.17,17,{'all': 0},0.51,ES,1680133276
96,joshimath,30.5667,79.5667,7.3,61,{'all': 79},3.52,IN,1680133278
97,paamiut,61.994,-49.6678,-11.94,82,{'all': 16},2.92,GL,1680133279
98,bathsheba,13.2167,-59.5167,26.34,73,{'all': 40},7.72,BB,1680133281
99,togur,58.3631,82.8265,-7.76,75,{'all': 51},3.53,RU,1680133283
100,iqaluit,63.7506,-68.5145,-19.06,77,{'all': 100},8.23,CA,1680133288
101,honiara,-9.4333,159.95,28.19,78,{'all': 99},1.85,SB,1680133292
102,butaritari,3.0707,172.7902,27.39,79,{'all': 87},5.89,KI,1680133293
103,puerto ayora,-0.7393,-90.3518,27.53,88,{'all': 89},1.34,EC,1680133295
104,ekibastuz,51.6667,75.3667,-1.09,71,{'all': 100},8.37,KZ,1680133296
105,cabo san lucas,22.8909,-109.9124,26.14,49,{'all': 75},4.12,MX,1680133143
106,souillac,-20.5167,57.5167,27.21,83,{'all': 75},4.63,MU,1680133299
107,tres coracoes,-21.6969,-45.2533,19.53,92,{'all': 99},2.1,BR,1680133300
108,khatanga,71.9667,102.5,-27.03,99,{'all': 99},1.57,RU,1680133302
109,peterhead,57.5058,-1.7981,8.22,96,{'all': 100},5.79,GB,1680133304
110,hudiksvall,61.729,17.1036,-6.14,85,{'all': 30},1.38,SE,1680133306
111,domat,46.8348,9.4508,11.15,94,{'all': 100},2.65,CH,1680133307
112,hambantota,6.1241,81.1185,24.64,80,{'all': 27},2.72,LK,1680133309
113,ukiah,39.1502,-123.2078,10.94,62,{'all': 40},4.12,US,1680133311
114,anupgarh,29.1911,73.2086,22.17,49,{'all': 70},0.82,IN,1680133313
115,severo-kurilsk,50.6789,156.125,2.16,81,{'all': 7},2.82,RU,1680133316
116,chokurdakh,70.6333,147.9167,-23.76,94,{'all': 100},1.27,RU,1680133318
117,kijang,35.2442,129.2139,9.85,46,{'all': 69},0.82,KR,1680133319
118,saint george,37.1041,-113.5841,19.03,32,{'all': 0},10.29,US,1680133053
119,saskylakh,71.9167,114.0833,-29.57,100,{'all': 94},1.0,RU,1680133322
120,dunedin,-45.8742,170.5036,13.22,61,{'all': 67},4.04,NZ,1680133098
121,sao filipe,14.8961,-24.4956,25.07,58,{'all': 79},3.37,CV,1680133325
122,penzance,50.1186,-5.5371,11.38,90,{'all': 83},11.83,GB,1680132767
123,northam,51.0333,-4.2167,10.77,92,{'all': 94},9.49,GB,1680133329
124,strezhevoy,60.7333,77.5889,-8.27,86,{'all': 94},5.81,RU,1680133331
125,mandera,3.9366,41.867,29.2,55,{'all': 29},0.55,KE,1680133332
126,jamestown,42.097,-79.2353,-1.36,97,{'all': 100},7.72,US,1680132832
127,arlit,18.7369,7.3853,24.17,10,{'all': 1},5.07,NE,1680133338
128,eston,51.1501,-108.7514,-2.82,90,{'all': 23},2.11,CA,1680133339
129,mogadishu,2.0371,45.3438,27.04,78,{'all': 44},5.11,SO,1680133161
130,pevek,69.7008,170.3133,-19.83,95,{'all': 100},3.43,RU,1680133342
131,kodiak,57.79,-152.4072,3.73,87,{'all': 100},5.14,US,1680133236
132,gorur,12.8194,76.0717,21.76,63,{'all': 80},1.69,IN,1680133344
133,riacho de santana,-13.6092,-42.9389,24.81,50,{'all': 59},2.32,BR,1680133346
134,lichuan,30.3,108.85,6.63,88,{'all': 50},0.42,CN,1680133347
135,new norfolk,-42.7826,147.0587,13.29,74,{'all': 100},1.79,AU,1680133348
136,alofi,-19.0595,-169.9187,28.94,74,{'all': 75},3.6,NU,1680133349
137,tautira,-17.7333,-149.15,27.29,75,{'all': 78},1.36,PF,1680133351
138,uruzgan,32.8333,66.0,8.47,78,{'all': 60},1.15,AF,1680133353
139,namibe,-15.1961,12.1522,23.76,80,{'all': 100},1.78,AO,1680133354
140,cidreira,-30.1811,-50.2056,22.38,89,{'all': 62},2.93,BR,1680133356
141,belyy yar,53.6039,91.3903,-0.06,74,{'all': 0},1.0,RU,1680133357
142,sinnamary,5.3833,-52.95,24.93,87,{'all': 58},5.33,GF,1680133358
143,beloha,-25.1667,45.05,19.85,86,{'all': 1},2.13,MG,1680133359
144,mayor pablo lagerenza,-19.9309,-60.7718,28.34,59,{'all': 49},3.11,PY,1680133361
145,hofn,64.2539,-15.2082,3.03,97,{'all': 100},10.76,IS,1680133362
146,teahupoo,-17.8333,-149.2667,28.98,75,{'all': 88},1.61,PF,1680133363
147,vila franca do campo,37.7167,-25.4333,16.23,90,{'all': 94},7.87,PT,1680133364
148,kosh-agach,50.0,88.6667,-10.36,82,{'all': 75},1.43,RU,1680133365
149,ocampo,21.65,-101.5,19.9,44,{'all': 98},5.69,MX,1680133366
150,atikokan,48.7555,-91.6216,-5.92,81,{'all': 100},4.58,CA,1680133367
151,yatou,37.15,122.3833,11.7,45,{'all': 6},3.85,CN,1680133370
152,san joaquin,37.9333,-121.3011,10.55,89,{'all': 100},5.66,US,1680133371
153,alta floresta,-9.8756,-56.0861,22.75,95,{'all': 89},1.26,BR,1680133372
154,jining,35.405,116.5814,12.75,59,{'all': 32},3.91,CN,1680133375
155,smithers,54.7804,-127.1743,11.18,22,{'all': 0},1.03,CA,1680133216
156,turayf,31.6725,38.6637,9.14,66,{'all': 0},9.26,SA,1680133377
157,khuzdar,27.7384,66.6434,15.57,56,{'all': 6},1.57,PK,1680133378
158,tsaratanana,-16.7833,47.65,22.91,95,{'all': 100},1.7,MG,1680133379
159,japura,-0.3167,102.35,23.46,97,{'all': 91},0.56,ID,1680133380
160,rawson,-43.3002,-65.1023,13.78,27,{'all': 54},6.26,AR,1680133145
161,mount gambier,-37.8333,140.7667,16.21,67,{'all': 53},4.36,AU,1680133382
162,henties bay,-22.116,14.2845,15.19,93,{'all': 13},3.58,NA,1680133383
163,inhambane,-23.865,35.3833,20.71,83,{'all': 0},3.34,MZ,1680133385
164,ancud,-41.8697,-73.8203,10.33,78,{'all': 98},4.13,CL,1680133386
165,sao joao do piaui,-8.3581,-42.2467,24.87,68,{'all': 92},0.66,BR,1680133389
166,cherskiy,68.75,161.3,-21.79,92,{'all': 75},1.62,RU,1680133390
167,poltavka,54.3663,71.7632,-4.64,85,{'all': 7},3.72,RU,1680133392
168,dikson,73.5069,80.5464,-22.02,98,{'all': 100},5.67,RU,1680133393
169,bengkulu,-3.8004,102.2655,24.66,85,{'all': 93},1.58,ID,1680133394
170,ystad,55.4297,13.8204,5.41,97,{'all': 99},2.93,SE,1680133395
171,geraldton,-28.7667,114.6,23.23,78,{'all': 40},8.23,AU,1680133399
172,lima,-12.0432,-77.0282,26.14,61,{'all': 0},4.12,PE,1680133318
173,daru,-9.0763,143.2092,25.82,88,{'all': 96},2.21,PG,1680133403
174,selikhino,50.3672,137.4996,2.2,98,{'all': 100},3.53,RU,1680133406
175,bedele,8.456,36.353,15.13,77,{'all': 95},0.81,ET,1680133407
176,monrovia,6.3005,-10.7969,23.87,87,{'all': 55},2.57,LR,1680132923
177,angola,-12.5,18.5,17.59,97,{'all': 100},0.62,AO,1680133409
178,lasa,46.6166,10.7002,7.49,95,{'all': 92},1.7,IT,1680133411
179,requena,39.4883,-1.1004,8.62,46,{'all': 63},1.66,ES,1680133412
180,pangkalanbuun,-2.6833,111.6167,23.97,96,{'all': 100},0.85,ID,1680133413
181,nakamura,32.9833,132.9333,15.84,69,{'all': 100},1.33,JP,1680133416
182,fare,-16.7,-151.0167,28.08,72,{'all': 81},2.91,PF,1680133418
183,saint-francois,46.4154,3.9054,16.69,55,{'all': 0},2.57,FR,1680133420
184,ponta do sol,32.6667,-17.1,21.74,32,{'all': 23},1.11,PT,1680133421
185,codrington,-38.2667,141.9667,16.05,71,{'all': 52},6.23,AU,1680133423
186,hammerfest,70.6634,23.6821,-1.75,86,{'all': 75},8.75,NO,1680133425
187,tshikapa,-6.4167,20.8,20.34,94,{'all': 62},0.83,CD,1680133427
188,namwala,-15.7504,26.4384,17.55,93,{'all': 56},2.15,ZM,1680133428
189,padang,-0.9492,100.3543,23.03,89,{'all': 90},1.62,ID,1680133429
190,mar del plata,-38.0023,-57.5575,15.61,59,{'all': 40},2.57,AR,1680133143
191,loding,67.3,14.75,-7.05,77,{'all': 0},4.12,NO,1680133433
192,sabha,27.0377,14.4283,17.15,36,{'all': 0},6.3,LY,1680133434
193,solnechnyy,50.7214,136.6319,1.65,81,{'all': 100},0.96,RU,1680133436
194,nanortalik,60.1432,-45.2371,-4.12,91,{'all': 64},2.99,GL,1680133437
195,kaeo,-35.1,173.7833,18.51,54,{'all': 100},2.13,NZ,1680133438
196,castro,-24.7911,-50.0119,17.71,97,{'all': 88},2.97,BR,1680133440
197,saint-philippe,-21.3585,55.7679,22.77,79,{'all': 63},3.09,RE,1680133444
198,komsomolskiy,40.4272,71.7189,15.4,47,{'all': 100},1.68,UZ,1680133446
199,constitucion,-35.3333,-72.4167,12.08,76,{'all': 58},7.58,CL,1680133448
200,amapa,1.0,-52.0,22.64,98,{'all': 84},1.27,BR,1680133450
201,stornoway,58.2093,-6.3865,9.98,90,{'all': 100},6.69,GB,1680133451
202,kibala,9.1104,18.3463,29.97,48,{'all': 0},2.06,TD,1680133453
203,sechura,-5.5569,-80.8222,26.51,79,{'all': 84},3.32,PE,1680133455
204,trinidad,-14.8333,-64.9,29.99,74,{'all': 40},0.0,BO,1680133408
205,sobolevo,54.4299,31.8996,-2.93,90,{'all': 99},6.27,RU,1680133458
206,bure,10.7,37.0667,17.33,38,{'all': 100},1.23,ET,1680133460
207,bilma,18.6853,12.9164,23.79,10,{'all': 2},2.89,NE,1680133461
208,kulevcha,46.0303,29.9361,0.58,63,{'all': 57},3.71,UA,1680133463
209,bredasdorp,-34.5322,20.0403,13.86,76,{'all': 36},2.63,ZA,1680133465
210,makakilo city,21.3469,-158.0858,27.18,71,{'all': 75},5.66,US,1680133467
211,laguna,38.421,-121.4238,9.42,87,{'all': 75},10.29,US,1680133468
212,broome,42.2506,-75.833,10.21,41,{'all': 100},4.12,US,1680133380
213,pisco,-13.7,-76.2167,26.03,73,{'all': 0},5.66,PE,1680133472
214,kholm,59.2667,32.85,-3.16,94,{'all': 99},3.34,RU,1680133474
215,korla,41.7597,86.1469,10.7,21,{'all': 90},0.81,CN,1680133475
216,xinglongshan,43.9561,125.4661,5.86,75,{'all': 61},1.0,CN,1680133477
217,timberlake,37.3207,-79.2575,14.98,26,{'all': 0},2.57,US,1680133478
218,listvyagi,53.6772,86.951,2.96,80,{'all': 100},2.52,RU,1680133480
219,tuatapere,-46.1333,167.6833,11.18,50,{'all': 46},2.37,NZ,1680133482
220,itanhandu,-22.2958,-44.9347,18.89,98,{'all': 100},0.93,BR,1680133371
221,dong hoi,17.4833,106.6,22.12,90,{'all': 100},1.73,VN,1680133485
222,manggar,-2.8833,108.2667,26.37,84,{'all': 100},2.4,ID,1680133487
223,phalaborwa,-23.943,31.1411,22.6,84,{'all': 27},6.24,ZA,1680133489
224,pafos,34.7667,32.4167,12.88,50,{'all': 75},2.57,CY,1680133452
225,tingi,-11.3,35.0333,16.14,95,{'all': 76},0.84,TZ,1680133495
226,poso,-1.3959,120.7524,29.63,64,{'all': 77},0.66,ID,1680133497
227,puerto cabezas,14.0351,-83.3888,27.98,83,{'all': 40},4.12,NI,1680133498
228,beringovskiy,63.05,179.3167,-5.43,82,{'all': 92},4.74,RU,1680133500
229,vardo,70.3705,31.1107,-2.01,93,{'all': 100},8.75,NO,1680133501
230,lompoc,34.6391,-120.4579,13.62,75,{'all': 75},7.6,US,1680132691
231,gamba,-2.65,10.0,24.13,86,{'all': 100},2.4,GA,1680133503
232,nacozari,25.3366,-108.2574,26.7,39,{'all': 100},3.43,MX,1680133505
233,mahina,-17.5065,-149.489,31.87,62,{'all': 20},4.12,PF,1680133506
234,lavrentiya,65.5833,-171.0,-4.63,91,{'all': 100},5.23,RU,1680133508
235,batemans bay,-35.7167,150.1833,18.39,62,{'all': 44},1.49,AU,1680133509
236,kirkuk,35.4681,44.3922,14.47,67,{'all': 6},3.83,IQ,1680133511
237,ponta delgada,37.7333,-25.6667,16.4,94,{'all': 40},7.2,PT,1680133512
238,mehamn,71.0357,27.8492,-2.03,100,{'all': 100},9.77,NO,1680133514
239,marsa matruh,31.3525,27.2453,13.11,54,{'all': 40},5.14,EG,1680133515
240,provideniya,64.3833,-173.3,-0.94,74,{'all': 100},7.0,RU,1680133517
241,panaba,21.2833,-88.2667,27.52,60,{'all': 82},5.36,MX,1680133518
242,esil,51.9556,66.4042,-4.0,90,{'all': 70},5.39,KZ,1680133520
243,valdivia,-39.8142,-73.2459,11.05,81,{'all': 58},1.16,CL,1680133522
244,hai duong,20.9333,106.3167,19.0,85,{'all': 95},1.34,VN,1680133523
245,ust-omchug,61.15,149.6333,-7.8,89,{'all': 88},2.2,RU,1680133527
246,pangody,65.85,74.4859,-18.6,95,{'all': 90},6.53,RU,1680133528
247,makokou,0.5738,12.8642,19.71,98,{'all': 99},0.68,GA,1680133530
248,bongandanga,1.5,21.05,20.94,98,{'all': 97},0.38,CD,1680133531
249,tasiilaq,65.6145,-37.6368,-10.91,65,{'all': 3},2.53,GL,1680133532
250,quarai,-30.3875,-56.4514,23.4,82,{'all': 33},2.57,BR,1680133254
251,bethel,41.3712,-73.414,9.09,51,{'all': 88},0.89,US,1680133536
252,hokitika,-42.7167,170.9667,13.05,51,{'all': 0},2.74,NZ,1680133537
253,sioux lookout,50.1001,-91.917,-3.96,36,{'all': 40},5.66,CA,1680133307
254,sibu,2.3,111.8167,24.17,94,{'all': 40},0.0,MY,1680133544
255,karatau,43.1667,70.4667,13.15,65,{'all': 81},0.65,KZ,1680133545
256,coquimbo,-29.9533,-71.3436,16.85,88,{'all': 0},2.57,CL,1680133287
257,ballina,-28.8667,153.5667,25.99,61,{'all': 94},2.57,AU,1680133550
258,pangnirtung,66.1451,-65.7125,-18.0,78,{'all': 20},0.0,CA,1680133551
259,grand-lahou,5.1367,-5.0242,26.23,88,{'all': 99},1.52,CI,1680133552
260,wajid,3.8093,43.2471,26.66,67,{'all': 72},5.11,SO,1680133556
261,nikolskoye,59.7035,30.7861,-4.06,94,{'all': 98},2.61,RU,1680133557
262,volokolamsk,56.0336,35.9694,3.29,92,{'all': 100},3.5,RU,1680133559
263,byron bay,-28.65,153.6167,25.95,72,{'all': 98},2.36,AU,1680133435
264,dudinka,69.4058,86.1778,-25.09,99,{'all': 98},2.27,RU,1680133561
265,vigia,-0.8583,-48.1417,23.99,91,{'all': 100},3.1,BR,1680133562
266,husavik,66.0449,-17.3389,1.61,76,{'all': 100},10.09,IS,1680133564
267,takoradi,4.8845,-1.7554,26.53,85,{'all': 99},3.47,GH,1680133565
268,inirida,3.8653,-67.9239,24.17,92,{'all': 98},1.23,CO,1680133567
269,roald,62.5833,6.1333,2.09,47,{'all': 27},4.63,NO,1680133568
270,katsuura,35.1333,140.3,14.14,75,{'all': 9},2.36,JP,1680133570
271,guerrero negro,27.9769,-114.0611,17.4,46,{'all': 1},7.64,MX,1680133572
272,bandarbeyla,9.4942,50.8122,26.35,75,{'all': 9},1.51,SO,1680133573
273,darhan,49.4867,105.9228,3.73,54,{'all': 10},3.27,MN,1680133575
274,ahipara,-35.1667,173.1667,17.28,41,{'all': 100},1.55,NZ,1680133576
275,shache,38.4167,77.2406,12.06,18,{'all': 100},1.13,CN,1680133577
276,mitu,1.1983,-70.1733,24.9,84,{'all': 94},1.4,CO,1680133578
277,atar,20.5169,-13.0499,29.76,8,{'all': 0},2.28,MR,1680133580
278,vaitape,-16.5167,-151.75,28.14,72,{'all': 94},3.9,PF,1680133581
279,santa fe,-31.6333,-60.7,22.94,92,{'all': 60},3.57,AR,1680133582
280,canarana,-11.6847,-41.7689,20.78,83,{'all': 40},3.15,BR,1680133585
281,zhangjiakou,40.81,114.8794,12.04,15,{'all': 87},0.98,CN,1680133587
282,dauphin,51.1494,-100.0502,-0.92,59,{'all': 0},7.72,CA,1680133476
283,adrar,20.5022,-10.0711,27.89,8,{'all': 0},3.54,MR,1680133285
284,perez,-32.9983,-60.7679,22.17,57,{'all': 0},7.2,AR,1680133592
285,kavieng,-2.5744,150.7967,28.1,74,{'all': 99},2.31,PG,1680133596
286,luderitz,-26.6481,15.1594,15.08,73,{'all': 0},9.93,NA,1680133599
287,ust-ishim,57.6935,71.1665,-4.66,85,{'all': 29},4.17,RU,1680133600
288,clyde river,70.4692,-68.5914,-22.87,84,{'all': 75},2.06,CA,1680133602
289,boa vista,2.8197,-60.6733,30.99,48,{'all': 0},3.09,BR,1680133603
290,zabid,14.1951,43.3152,26.76,69,{'all': 10},1.56,YE,1680133605
291,dongsheng,39.8161,109.9776,8.6,22,{'all': 46},2.43,CN,1680133606
292,esperance,-33.8667,121.9,17.02,73,{'all': 100},4.33,AU,1680133608
293,maceio,-9.6658,-35.7353,25.69,94,{'all': 75},2.06,BR,1680133609
294,jiaozuo,35.2397,113.2331,14.4,40,{'all': 1},3.06,CN,1680133443
295,colesberg,-30.72,25.0972,12.17,67,{'all': 97},3.2,ZA,1680133612
296,lahad datu,5.0268,118.327,25.31,88,{'all': 49},1.66,MY,1680133617
297,podor,16.6527,-14.9587,30.97,37,{'all': 0},1.03,MR,1680133618
298,khani,41.9563,42.9566,0.76,99,{'all': 100},2.12,GE,1680133619
299,vrangel,42.7297,133.0839,4.86,90,{'all': 51},1.24,RU,1680133621
300,bonthe,7.5264,-12.505,24.03,87,{'all': 71},2.46,SL,1680133623
301,kloulklubed,7.0419,134.2556,25.28,68,{'all': 59},0.33,PW,1680133625
302,vostok,46.4856,135.8833,2.68,82,{'all': 97},3.79,RU,1680133626
303,deputatskiy,69.3,139.9,-23.75,98,{'all': 100},0.98,RU,1680133628
304,pacific grove,36.6177,-121.9166,12.82,86,{'all': 100},5.14,US,1680133629
305,budogoshch,59.2816,32.4707,-3.48,92,{'all': 100},3.38,RU,1680133631
306,hovd,48.0056,91.6419,1.55,49,{'all': 54},1.74,MN,1680133633
307,itapecerica,-20.4725,-45.1256,19.4,91,{'all': 58},1.18,BR,1680133634
308,lorengau,-2.0226,147.2712,27.83,78,{'all': 98},3.5,PG,1680133636
309,port hedland,-20.3167,118.5667,31.03,70,{'all': 40},4.12,AU,1680133638
310,parana,-31.732,-60.5238,20.98,89,{'all': 56},4.18,AR,1680133486
311,adzhamka,48.5424,32.5354,-0.91,82,{'all': 98},4.82,UA,1680133641
312,aswan,24.0934,32.907,22.61,21,{'all': 0},3.6,EG,1680133643
313,chara,56.9064,118.2631,-5.69,60,{'all': 68},1.87,RU,1680133644
314,tinsukia,27.5,95.3667,17.04,88,{'all': 44},0.5,IN,1680133646
315,coihaique,-45.5752,-72.0662,4.97,93,{'all': 100},3.6,CL,1680133648
316,aktas,49.7789,72.9608,0.86,95,{'all': 55},6.02,KZ,1680133635
317,verkhnyaya inta,65.9811,60.3094,-15.67,99,{'all': 87},3.65,RU,1680133652
318,hami,42.8,93.45,12.43,12,{'all': 74},4.04,CN,1680133653
319,stargard szczecinski,53.3367,15.0499,8.04,71,{'all': 98},2.63,PL,1680133655
320,sala consilina,40.3912,15.5989,3.49,86,{'all': 30},1.08,IT,1680133482
321,concordia,-31.393,-58.0209,22.66,97,{'all': 33},4.92,AR,1680133658
322,hualmay,-11.0964,-77.6139,25.14,75,{'all': 86},2.98,PE,1680133659
323,guarapari,-20.6667,-40.4975,24.94,90,{'all': 51},2.69,BR,1680133661
324,la peca,-5.6111,-78.435,21.67,82,{'all': 100},1.94,PE,1680133663
325,new glasgow,45.5834,-62.6486,-1.79,94,{'all': 63},0.85,CA,1680133491
326,coahuayana,18.7333,-103.6833,28.43,51,{'all': 89},2.47,MX,1680133666
327,nyurba,63.2842,118.3319,-9.98,95,{'all': 100},4.8,RU,1680133668
328,rio grande,-32.035,-52.0986,25.06,76,{'all': 12},3.45,BR,1680133520
329,joao camara,-5.5375,-35.8197,23.4,92,{'all': 34},2.57,BR,1680133672
330,kobelyaky,49.1489,34.1965,-0.89,87,{'all': 73},4.87,UA,1680133674
331,illela,13.7292,5.2975,27.51,11,{'all': 22},4.6,NG,1680133676
332,karakol,42.4907,78.3936,6.47,45,{'all': 95},1.72,KG,1680133677
333,itarema,-2.9248,-39.9167,24.7,89,{'all': 37},3.61,BR,1680133678
334,ketchikan,55.3422,-131.6461,9.26,57,{'all': 0},6.69,US,1680133680
335,langxiang,46.95,128.8833,4.92,42,{'all': 52},4.83,CN,1680133684
336,mersing,2.4312,103.8405,26.95,83,{'all': 20},3.6,MY,1680133687
337,vestmannaeyjar,63.4427,-20.2734,5.27,86,{'all': 100},12.97,IS,1680133689
338,emerald,-23.5333,148.1667,26.3,77,{'all': 62},4.65,AU,1680133453
339,opuwo,-18.0607,13.84,20.32,76,{'all': 92},2.58,NA,1680133693
340,puerto penasco,31.3167,-113.5333,18.28,73,{'all': 0},5.36,MX,1680133694
341,amuntai,-2.4177,115.2494,24.58,94,{'all': 91},0.34,ID,1680133696
342,leningradskiy,69.3833,178.4167,-10.43,90,{'all': 100},6.7,RU,1680133698
343,la cruz,23.9167,-106.9,23.56,54,{'all': 100},2.81,MX,1680133699
344,kaka,37.3482,59.6143,17.82,50,{'all': 0},2.48,TM,1680133701
345,tokur,53.1333,132.9,-5.19,82,{'all': 99},1.43,RU,1680133702
346,whitehorse,60.7161,-135.0538,3.43,41,{'all': 75},2.06,CA,1680133656
347,sorland,67.667,12.6934,-2.08,50,{'all': 17},2.95,NO,1680133706
348,nemuro,43.3236,145.575,3.33,76,{'all': 0},2.9,JP,1680133708
349,wattegama,6.7989,81.4808,21.14,91,{'all': 24},0.69,LK,1680133709
350,vila,42.0304,-8.1588,9.83,89,{'all': 94},3.31,PT,1680133711
351,chulman,56.8479,124.9104,-13.03,96,{'all': 92},0.65,RU,1680133713
352,rehoboth,-23.3167,17.0833,16.99,31,{'all': 0},1.89,NA,1680133714
353,suleja,9.1758,7.1808,26.55,29,{'all': 53},1.09,NG,1680133716
354,ostrovnoy,68.0531,39.5131,-2.45,91,{'all': 100},8.46,RU,1680133719
355,xiongzhou,25.1167,114.3,15.46,94,{'all': 100},1.07,CN,1680133721
356,misratah,32.3754,15.0925,14.49,65,{'all': 0},5.36,LY,1680133722
357,san cristobal,7.7669,-72.225,23.1,73,{'all': 94},0.09,VE,1680133713
358,camana,-16.6228,-72.7111,23.23,87,{'all': 30},2.16,PE,1680133725
359,laurel,39.0993,-76.8483,14.96,36,{'all': 40},3.6,US,1680132959
360,lethem,3.3803,-59.7968,31.03,45,{'all': 71},5.5,GY,1680133728
361,acajutla,13.5928,-89.8275,28.36,70,{'all': 12},3.07,SV,1680133730
362,palmer,42.1584,-72.3287,9.34,35,{'all': 58},0.89,US,1680133514
363,voyvozh,62.892,54.9635,-10.53,97,{'all': 81},2.15,RU,1680133733
364,kulpahar,25.3167,79.65,26.66,23,{'all': 100},2.86,IN,1680133735
365,berlevag,70.8578,29.0864,-2.0,93,{'all': 100},7.72,NO,1680133737
366,abu zabad,12.35,29.25,24.1,10,{'all': 81},5.87,SD,1680133738
367,alice springs,-23.7,133.8833,17.75,77,{'all': 100},5.14,AU,1680133525
368,jiangyou,31.7667,104.7167,12.93,83,{'all': 75},0.71,CN,1680133741
369,shintomi,32.0785,131.4723,11.62,55,{'all': 100},1.8,JP,1680133743
370,williston,48.147,-103.618,-1.59,88,{'all': 9},1.54,US,1680133746
371,verkhoyansk,67.5447,133.385,-21.6,97,{'all': 99},0.34,RU,1680133748
372,anadyr,64.75,177.4833,-7.72,92,{'all': 100},9.0,RU,1680133751
373,kamenka,51.3223,42.7678,7.44,84,{'all': 100},2.27,RU,1680133752
374,benxi,41.2886,123.765,9.18,54,{'all': 10},2.49,CN,1680133756
375,seymchan,62.8833,152.4333,-13.29,89,{'all': 94},1.86,RU,1680133757
376,cateel,7.7914,126.4533,26.81,81,{'all': 100},1.73,PH,1680133759
377,socastee,33.6835,-78.9984,15.02,67,{'all': 40},1.54,US,1680133762
378,la ronge,55.1001,-105.2842,1.14,47,{'all': 75},6.17,CA,1680133556
379,kaitangata,-46.2817,169.8464,12.04,59,{'all': 91},4.7,NZ,1680133766
380,aegviidu,59.2858,25.6142,-3.24,83,{'all': 56},1.02,EE,1680133768
381,aleksandro-nevskiy,53.4751,40.2095,5.63,98,{'all': 100},0.42,RU,1680133769
382,chaman,30.9236,66.4512,12.69,74,{'all': 91},0.45,PK,1680133771
383,taltal,-25.4,-70.4833,20.45,80,{'all': 23},2.22,CL,1680133772
384,san patricio,28.017,-97.5169,21.93,78,{'all': 98},6.35,US,1680133774
385,lons-le-saunier,46.75,5.75,15.62,80,{'all': 100},1.77,FR,1680133775
386,careiro da varzea,-3.2003,-59.8119,28.35,93,{'all': 74},0.97,BR,1680133777
387,ambulu,-8.345,113.6058,25.83,86,{'all': 81},0.83,ID,1680133778
388,mvomero,-6.25,38.6667,23.63,96,{'all': 99},0.96,TZ,1680133779
389,hasaki,35.7333,140.8333,15.16,67,{'all': 40},0.84,JP,1680133781
390,quelimane,-17.8786,36.8883,22.97,94,{'all': 0},0.0,MZ,1680133783
391,langsa,4.4683,97.9683,23.15,91,{'all': 39},1.21,ID,1680133784
392,haines junction,60.7522,-137.5108,1.97,41,{'all': 100},2.57,CA,1680133785
393,ossora,59.2353,163.0719,-7.2,77,{'all': 8},0.79,RU,1680133786
394,kuusamo,65.9667,29.1833,-6.98,93,{'all': 100},2.57,FI,1680133788
395,talara,-4.5772,-81.2719,28.42,74,{'all': 40},5.14,PE,1680133790
396,lagoa,39.05,-27.9833,16.21,86,{'all': 100},18.33,PT,1680133791
397,naze,28.3667,129.4833,16.51,87,{'all': 100},7.82,JP,1680133793
398,muisne,0.6,-80.0333,25.77,83,{'all': 38},1.24,EC,1680133794
399,uray,60.1247,64.7758,-8.19,71,{'all': 17},3.28,RU,1680133795
400,kahului,20.8947,-156.47,28.01,54,{'all': 40},3.13,US,1680133797
401,poum,-20.2333,164.0167,27.08,75,{'all': 100},6.67,NC,1680133799
402,port lavaca,28.615,-96.6261,22.18,70,{'all': 75},8.23,US,1680133800
403,senneterre,48.3835,-77.2328,-10.34,92,{'all': 100},6.61,CA,1680133802
404,greensburg,40.3015,-79.5389,10.55,40,{'all': 40},7.2,US,1680133207
405,ormara,25.2088,64.6357,23.34,62,{'all': 1},4.97,PK,1680133806
406,chicama,-7.8447,-79.1469,26.3,72,{'all': 79},2.81,PE,1680133808
407,barra da estiva,-13.6261,-41.3269,19.28,74,{'all': 28},2.6,BR,1680133810
408,mackenzie,55.2999,-123.1698,7.12,42,{'all': 40},3.6,CA,1680133810
409,yarada,17.65,83.2667,26.18,100,{'all': 40},1.03,IN,1680133814
410,porto novo,6.4965,2.6036,28.9,82,{'all': 57},4.58,BJ,1680133816
411,cayenne,4.9333,-52.3333,26.02,78,{'all': 20},3.6,GF,1680133819
412,salalah,17.0151,54.0924,25.34,38,{'all': 5},3.13,OM,1680133820
413,capaci,38.1711,13.2393,11.78,68,{'all': 0},0.51,IT,1680133824
414,port hardy,50.6996,-127.4199,11.1,50,{'all': 20},5.14,CA,1680133825
415,ha giang,22.8333,104.9833,20.24,93,{'all': 100},0.83,VN,1680133827
416,pangoa,-12.1167,-73.0,21.6,95,{'all': 93},0.97,PE,1680133828
417,merritt,50.1123,-120.7942,6.04,79,{'all': 100},0.26,CA,1680133555
418,muyezerskiy,63.9333,31.65,-5.75,96,{'all': 100},3.46,RU,1680133832
419,hamilton,39.1834,-84.5333,12.69,36,{'all': 20},5.14,US,1680133699
420,dingle,10.9995,122.6711,27.44,76,{'all': 82},4.09,PH,1680133836
421,ust-koksa,50.2696,85.6108,3.48,76,{'all': 98},2.68,RU,1680133837
422,vizinga,61.0749,50.1031,-5.27,90,{'all': 76},4.07,RU,1680133839
423,ararat,39.8317,44.7049,13.19,42,{'all': 2},5.45,AM,1680133841
424,vicuna,-30.0319,-70.7081,24.87,53,{'all': 0},0.34,CL,1680133844
425,necochea,-38.5473,-58.7368,12.74,55,{'all': 4},4.09,AR,1680133846
426,vanino,49.0869,140.2543,4.51,67,{'all': 100},1.62,RU,1680133850
427,bambous virieux,-20.3428,57.7575,27.14,83,{'all': 75},4.63,MU,1680133852
428,oistins,13.0667,-59.5333,26.05,73,{'all': 40},7.72,BB,1680133687
429,invermere,50.5167,-116.0354,7.89,53,{'all': 77},0.55,CA,1680133855
430,acarau,-2.8856,-40.12,27.83,75,{'all': 28},6.93,BR,1680133815
431,nishihara,26.1842,127.7558,18.6,82,{'all': 75},8.75,JP,1680133860
432,malanje,-9.5402,16.341,17.69,98,{'all': 71},2.84,AO,1680133861
433,klaksvik,62.2266,-6.589,6.51,95,{'all': 100},18.99,FO,1680133864
434,macon,39.8667,-88.9668,11.03,40,{'all': 0},3.6,US,1680133865
435,namatanai,-3.6667,152.4333,28.72,71,{'all': 100},1.48,PG,1680133866
436,tabuk,17.4189,121.4443,25.43,69,{'all': 9},1.72,PH,1680133868
437,cap malheureux,-19.9842,57.6142,26.37,77,{'all': 47},1.79,MU,1680133869
438,sistranda,63.7256,8.834,-8.02,72,{'all': 43},8.12,NO,1680133871
439,guozhen,34.3659,107.359,12.98,53,{'all': 53},1.33,CN,1680133874
440,smithfield,41.922,-71.5495,7.65,60,{'all': 0},2.57,US,1680133875
441,faya,18.3851,42.4509,15.29,69,{'all': 5},1.55,SA,1680133877
442,vanavara,60.34,102.2797,-4.42,80,{'all': 100},6.99,RU,1680133879
443,codigoro,44.8311,12.1142,11.15,77,{'all': 95},2.69,IT,1680133881
444,fairbanks,64.8378,-147.7164,1.16,36,{'all': 75},2.06,US,1680133883
445,mayo,38.8876,-76.5119,14.72,57,{'all': 0},6.17,US,1680133829
446,tyrma,50.0833,132.1667,0.95,57,{'all': 37},4.48,RU,1680133885
447,harper,4.375,-7.7169,26.51,87,{'all': 58},2.07,LR,1680133887
448,kulhudhuffushi,6.6221,73.07,28.23,71,{'all': 63},3.03,MV,1680133888
449,labuhan,-6.8844,112.2051,26.49,83,{'all': 100},3.07,ID,1680133889
450,birjand,32.8663,59.2211,8.26,81,{'all': 0},2.06,IR,1680133891
451,tocopilla,-22.092,-70.1979,22.12,79,{'all': 2},1.81,CL,1680133893
452,impfondo,1.6381,18.0667,22.43,92,{'all': 98},0.34,CG,1680133894
453,acapulco,16.8634,-99.8901,29.9,62,{'all': 0},3.09,MX,1680133569
454,torre-pacheco,37.7429,-0.954,14.14,81,{'all': 24},1.03,ES,1680133901
455,taoudenni,22.6783,-3.9836,29.9,8,{'all': 1},9.59,ML,1680133904
456,imeni vorovskogo,55.7233,38.3414,6.14,96,{'all': 100},1.94,RU,1680133969
457,sept-iles,50.2001,-66.3821,-1.08,92,{'all': 40},1.54,CA,1680133970
458,nikolayevsk-na-amure,53.1406,140.73,4.66,68,{'all': 100},2.1,RU,1680133972
459,taseyevo,57.2169,94.8978,-2.81,84,{'all': 100},4.71,RU,1680133973
460,jalu,29.0331,21.5482,13.03,44,{'all': 0},4.79,LY,1680133913
461,bangangte,5.1409,10.5198,17.6,93,{'all': 100},1.7,CM,1680133978
462,saldanha,-33.0117,17.9442,14.03,80,{'all': 47},7.62,ZA,1680133866
463,mulege,26.8833,-111.9833,24.98,25,{'all': 48},1.99,MX,1680133984
464,miri,4.4148,114.0089,24.08,88,{'all': 40},1.03,MY,1680133432
465,teguldet,57.3064,88.1667,-6.92,77,{'all': 100},3.86,RU,1680133988
466,enid,36.3956,-97.8784,20.09,37,{'all': 0},9.77,US,1680133828
467,lannion,48.75,-3.4167,12.23,92,{'all': 88},0.45,FR,1680133991
468,narok,-1.0783,35.8601,14.05,89,{'all': 98},0.93,KE,1680134055
469,aksu,41.1231,80.2644,11.8,20,{'all': 66},1.71,CN,1680134057
470,baykalsk,51.5058,104.1469,2.73,75,{'all': 6},3.05,RU,1680134059
471,launceston,-41.45,147.1667,14.23,62,{'all': 100},4.63,AU,1680133878
472,port blair,11.6667,92.75,26.17,78,{'all': 77},2.15,IN,1680133899
473,fort-shevchenko,44.5086,50.263,9.93,92,{'all': 0},5.51,KZ,1680134063
474,celestun,20.8667,-90.4,25.75,78,{'all': 91},7.63,MX,1680133887
475,hajnowka,52.7433,23.5812,-0.55,80,{'all': 73},0.45,PL,1680134069
476,lashio,22.9333,97.75,15.8,56,{'all': 7},0.59,MM,1680134070
477,grimshaw,56.1834,-117.6027,0.79,75,{'all': 40},3.6,CA,1680134072
478,faanui,-16.4833,-151.75,28.13,72,{'all': 95},3.8,PF,1680133872
479,alma,48.5501,-71.6491,4.56,83,{'all': 100},5.56,CA,1680134075
480,san lazaro,18.0387,-88.6622,25.32,59,{'all': 0},3.28,BZ,1680134077
481,mount isa,-20.7333,139.5,27.87,47,{'all': 10},4.63,AU,1680134140
482,gulbene,57.1777,26.7529,-3.63,71,{'all': 16},0.92,LV,1680134143
483,gewane,10.1664,40.6453,24.92,68,{'all': 75},1.84,ET,1680134144
484,razdolinsk,58.4211,94.6658,-10.7,91,{'all': 97},2.57,RU,1680134146
485,ndola,-12.9587,28.6366,17.53,93,{'all': 82},1.34,ZM,1680134209
486,mandiana,10.6333,-8.6833,24.49,72,{'all': 70},0.63,GN,1680134211
487,sokoni,-6.4333,39.55,26.99,79,{'all': 96},1.79,TZ,1680134216
488,samarai,-10.6167,150.6667,29.03,69,{'all': 19},2.81,PG,1680134218
489,nagapattinam,10.7667,79.8333,25.04,80,{'all': 18},2.4,IN,1680134222
490,voh,-20.9667,164.7,30.89,55,{'all': 85},0.27,NC,1680134224
491,akyab,20.15,92.9,23.15,86,{'all': 7},3.19,MM,1680134225
492,colares,38.7992,-9.4469,17.19,93,{'all': 96},5.36,PT,1680134227
493,lodja,-3.4833,23.4333,21.0,98,{'all': 56},0.88,CD,1680134229
494,desaguadero,-16.5656,-69.0417,8.84,77,{'all': 87},3.02,PE,1680134231
495,longyearbyen,78.2186,15.6401,-12.09,79,{'all': 75},1.54,SJ,1680134174
496,dakar,14.6937,-17.4441,22.49,88,{'all': 6},6.75,SN,1680133501
497,kikwit,-5.041,18.8162,21.15,97,{'all': 99},0.49,CD,1680134236
498,caravelas,-17.7125,-39.2481,24.33,78,{'all': 0},2.74,BR,1680134238
499,dukat,62.55,155.55,-7.73,82,{'all': 61},1.77,RU,1680134240
500,nagato,34.3833,131.2,14.09,46,{'all': 90},1.06,JP,1680134241
501,pelham,33.2857,-86.81,15.5,36,{'all': 58},0.17,US,1680134243
502,olafsvik,64.8945,-23.7142,2.28,84,{'all': 100},6.51,IS,1680134245
503,kajaani,64.2273,27.7285,-9.97,85,{'all': 100},2.06,FI,1680134247
504,anloga,5.7947,0.8973,27.83,84,{'all': 30},5.91,GH,1680134249
505,falmouth,50.1544,-5.0711,11.5,93,{'all': 75},7.2,GB,1680134004
506,katherine,-14.4667,132.2667,29.18,65,{'all': 88},2.57,AU,1680134253
507,kalmunai,7.4167,81.8167,23.51,84,{'all': 18},0.76,LK,1680134256
508,roebourne,-20.7833,117.1333,28.15,75,{'all': 100},3.8,AU,1680134257
509,richards bay,-28.783,32.0377,19.84,86,{'all': 97},4.75,ZA,1680134259
510,yumen,40.2833,97.2,6.86,15,{'all': 0},1.94,CN,1680134261
511,ixtapa,20.7,-105.2,23.46,77,{'all': 96},1.79,MX,1680134263
512,sapouy,11.5544,-1.7736,29.36,13,{'all': 80},3.09,BF,1680134265
513,seidu,9.0167,-10.6,21.12,88,{'all': 100},1.15,SL,1680134266
514,iberia,29.9502,-91.7507,17.99,62,{'all': 35},3.27,US,1680134268
515,chala,-7.5833,31.2667,13.03,96,{'all': 20},1.0,TZ,1680134270
516,kapuskasing,49.4169,-82.4331,-7.0,63,{'all': 75},3.6,CA,1680134259
517,green river,41.5286,-109.4662,7.77,44,{'all': 62},2.24,US,1680134125
518,lujan,-34.5703,-59.105,19.45,69,{'all': 78},2.24,AR,1680134275
519,howell,42.6073,-83.9294,1.2,48,{'all': 0},4.12,US,1680134225
520,nola,40.922,14.5329,12.02,89,{'all': 40},0.98,IT,1680134340
521,nizwa,22.9333,57.5333,19.94,41,{'all': 0},0.18,OM,1680134342
522,mgarr,36.0253,14.295,15.01,82,{'all': 78},1.34,MT,1680134344
523,pimentel,-6.8367,-79.9342,28.16,69,{'all': 75},4.12,PE,1680134346
524,kandy,7.2955,80.6356,20.51,96,{'all': 34},0.97,LK,1680134152
525,huarmey,-10.0681,-78.1522,25.63,77,{'all': 86},2.65,PE,1680134350
526,stokmarknes,68.5646,14.9108,-5.02,63,{'all': 100},1.54,NO,1680134352
527,tortoli,39.9256,9.6572,12.65,61,{'all': 5},1.46,IT,1680134354
528,olinda,-8.0089,-34.8553,25.85,78,{'all': 75},2.06,BR,1680133970
529,monaghan,54.25,-6.9667,9.66,96,{'all': 47},4.48,IE,1680134358
530,juneau,58.3019,-134.4197,3.95,100,{'all': 34},1.5,US,1680134159
531,den helder,52.9599,4.7593,12.99,84,{'all': 100},11.18,NL,1680134361
532,duluth,46.7833,-92.1066,-2.38,38,{'all': 0},6.69,US,1680134218
533,borovskoy,53.8,64.15,-2.61,79,{'all': 10},4.26,KZ,1680134365
534,saint-georges,12.0564,-61.7485,25.12,77,{'all': 73},7.15,GD,1680134368
535,the valley,18.217,-63.0578,26.08,73,{'all': 75},5.66,AI,1680134316
536,balgazyn,51.0,95.2,-4.76,91,{'all': 24},0.18,RU,1680134371
537,gizo,-8.103,156.8419,27.7,78,{'all': 100},3.34,SB,1680134373
538,wonthaggi,-38.6044,145.5913,14.34,70,{'all': 99},8.1,AU,1680134374
539,santiago de cao,-7.9589,-79.2392,27.07,78,{'all': 100},2.57,PE,1680134375
540,vila velha,-20.3297,-40.2925,25.97,90,{'all': 0},3.09,BR,1680134377
541,yamada,39.4667,141.95,9.68,58,{'all': 0},1.59,JP,1680134379
542,ayagoz,47.9714,80.4392,1.53,69,{'all': 20},2.05,KZ,1680134383
543,manaure,11.7751,-72.4445,26.5,71,{'all': 30},9.52,CO,1680134385
544,zaysan,47.4667,84.8667,3.25,72,{'all': 36},0.54,KZ,1680134387
545,nautanwa,27.4333,83.4167,20.84,33,{'all': 80},1.53,IN,1680134389
546,petatlan,17.5167,-101.2667,28.72,52,{'all': 100},2.0,MX,1680134390
547,tezu,27.9167,96.1667,17.44,62,{'all': 86},2.02,IN,1680134392
548,aleppo,36.25,37.5,8.7,59,{'all': 30},7.03,SY,1680134396
549,polunochnoye,60.8697,60.4153,-15.65,98,{'all': 33},0.74,RU,1680134398
550,iskateley,67.6803,53.1512,-13.35,90,{'all': 77},3.18,RU,1680134400
551,colwyn bay,53.2948,-3.7267,11.57,88,{'all': 100},5.69,GB,1680134403
552,irbil,36.1926,44.0106,13.33,72,{'all': 56},3.95,IQ,1680134419
553,cabedelo,-6.9811,-34.8339,24.4,92,{'all': 29},2.26,BR,1680134424
554,kavaratti,10.5669,72.642,27.12,71,{'all': 38},4.5,IN,1680134426
555,turukhansk,65.8167,87.9833,-30.41,100,{'all': 81},1.28,RU,1680134430
556,sompeta,18.9333,84.6,24.98,86,{'all': 5},1.89,IN,1680134432
557,bilibino,68.0546,166.4372,-13.27,95,{'all': 100},1.23,RU,1680134434
558,moshenskoye,58.5102,34.5911,-1.99,95,{'all': 100},3.64,RU,1680134435
559,mitsamiouli,-11.3847,43.2844,27.94,74,{'all': 96},2.26,KM,1680134438
560,alice,27.7523,-98.0697,20.85,82,{'all': 100},4.94,US,1680134439
561,chunskiy,56.0815,99.6342,-0.11,96,{'all': 24},1.22,RU,1680134441
562,tutoia,-2.7619,-42.2744,24.56,91,{'all': 99},2.86,BR,1680134444
563,carauari,-4.8828,-66.8958,23.2,97,{'all': 100},0.31,BR,1680134448
564,tiznit,29.5833,-9.5,22.73,19,{'all': 0},1.08,MA,1680134450
565,kieta,-6.2167,155.6333,25.84,85,{'all': 100},1.94,PG,1680134452
566,labuan,5.2767,115.2417,26.71,82,{'all': 100},7.34,MY,1680134454
567,moyamba,8.1667,-12.4333,23.56,86,{'all': 75},1.61,SL,1680134455
568,yerbogachen,61.2767,108.0108,1.26,100,{'all': 100},5.21,RU,1680134457
569,romny,50.751,33.4747,-0.99,85,{'all': 97},5.87,UA,1680134458
570,waitati,-45.75,170.5667,12.67,58,{'all': 39},2.47,NZ,1680134460
571,roma,43.2128,-75.4557,6.09,80,{'all': 100},12.35,US,1680134293
572,tigil,57.8,158.6667,-3.91,78,{'all': 89},3.5,RU,1680134463
573,casma,-41.0082,-73.1244,10.6,79,{'all': 91},0.31,CL,1680134346
574,umm kaddadah,13.6017,26.6876,22.86,9,{'all': 36},5.81,SD,1680134466
575,panji,-7.7253,114.0995,25.46,85,{'all': 86},2.1,ID,1680134468
576,port-gentil,-0.7193,8.7815,27.1,71,{'all': 92},3.13,GA,1680134470
577,huddersfield,53.649,-1.7842,11.36,93,{'all': 100},3.59,GB,1680134472
578,lata,40.1629,-8.3327,11.5,94,{'all': 55},1.19,PT,1680134473
579,nauta,-4.5061,-73.5757,26.75,69,{'all': 95},0.26,PE,1680134478
580,tayginka,55.6244,60.5076,-2.38,77,{'all': 7},2.35,RU,1680134480
581,rapid valley,44.0625,-103.1463,3.02,57,{'all': 100},6.69,US,1680134482
582,ariquemes,-9.9133,-63.0408,23.52,96,{'all': 99},1.01,BR,1680134484
